,city,latitude,longitude,intencity
3,Houston,29.7604,-95.3698,0.5
9,San Jose,37.3382,-121.8863,0.4
12,Fort Worth,32.7555,-97.3308,0.6
10,Austin,30.2672,-97.7431,0.9
11,Jacksonville,30.3322,-81.6557,0.6
